~Version Information Block
VERS .                                      2.0 : CWLS LOG ASCII STANDARD
WRAP .                                       NO : Data Line Wrap
~Well Information Block
#MNEM.UNIT                                 DATA : Data Description
#--------------------------------------------------------------------------------
STRT .FT                                  500.0 : Start Depth
STOP .FT                                 1000.0 : Stop Depth
STEP .FT                                    1.0 : Sample Every Step
NULL .                                  -999.25 : Data Null Value
COMP .                      Glacier Geosciences : Company Name
WELL .                            Test Well 009 : Well Name
FLD  .                                  Wildcat : Field Name
LOC  .                                  Area 51 : Location
TOWN .                                          : Township
RANG .                                          : Range
SECT .                                          : Section
CNTY .                                   Chavez : County
STAT .                               New Mexico : State
CTRY .                                      USA : Country
SRVC .                                          : Service Company
DATE .                                          : Logging Run Date
UWI  .                           30005000510000 : Unique Well Identifier
API  .                           30005000510000 : API Number
EPD  .FT                                   2780 : Permanent Datum Elevation
LMF  .                                       KB : Log Measured From
EGL  .FT                                   2750 : Ground Elevation
BS   .IN                                      0 : Bit Size
LATI .DEG                         33 23'36.8"N : Latitude
LONG .DEG                        104 31'25.3"W : Longitude
~Parameter Information Block
#MNEM.UNIT                                 DATA : Data Description
#--------------------------------------------------------------------------------
~Curve Information Block
#MNEM.UNIT                                  API : Curve Description
#--------------------------------------------------------------------------------
DEPTH       .FT                                 : Measured Depth
GR_N        .API                                : Gamma Ray
RHOBC       .G/CM3                              : Bulk Density
NPHI_N      .v/v                                : Neutron Porosity
RESDEEP     .ohmm                               : Array Induction Two Foot 90 Inch
~A
500 100 2.72 0.1 0.2
501 101 2.72 0.1 0.2
502 102 2.72 0.1 0.2
503 103 2.72 0.1 0.2
504 104 2.72 0.1 0.2
505 105 2.72 0.1 0.2
506 106 2.72 0.1 0.2
507 107 2.72 0.1 0.2
508 108 2.72 0.1 0.2
509 109 2.72 0.1 0.2
510 110 2.72 0.1 0.2
511 111 2.72 0.1 0.2
512 112 2.72 0.1 0.2
513 113 2.72 0.1 0.2
514 114 2.72 0.1 0.2
515 115 2.72 0.1 0.2
516 116 2.72 0.1 0.2
517 117 2.72 0.1 0.2
518 118 2.72 0.1 0.2
519 119 2.72 0.1 0.2
520 120 2.72 0.1 0.2
521 121 2.72 0.1 0.2
522 122 2.72 0.1 0.2
523 123 2.72 0.1 0.2
524 124 2.72 0.1 0.2
525 125 2.72 0.1 0.2
526 126 2.72 0.1 0.2
527 127 2.72 0.1 0.2
528 128 2.72 0.1 0.2
529 129 2.72 0.1 0.2
530 130 2.72 0.1 0.2
531 131 2.72 0.1 0.2
532 132 2.72 0.1 0.2
533 133 2.72 0.1 0.2
534 134 2.72 0.1 0.2
535 135 2.72 0.1 0.2
536 136 2.72 0.1 0.2
537 137 2.72 0.1 0.2
538 138 2.72 0.1 0.2
539 139 2.72 0.1 0.2
540 140 2.72 0.1 0.2
541 141 2.72 0.1 0.2
542 142 2.72 0.1 0.2
543 143 2.72 0.1 0.2
544 144 2.72 0.1 0.2
545 145 2.72 0.1 0.2
546 146 2.72 0.1 0.2
547 147 2.72 0.1 0.2
548 148 2.72 0.1 0.2
549 149 2.72 0.1 0.2
550 150 2.72 0.1 0.2
551 151 2.72 0.1 0.2
552 152 2.72 0.1 0.2
553 153 2.72 0.1 0.2
554 154 2.72 0.1 0.2
555 155 2.72 0.1 0.2
556 156 2.72 0.1 0.2
557 157 2.72 0.1 0.2
558 158 2.72 0.1 0.2
559 159 2.72 0.1 0.2
560 160 2.72 0.1 0.2
561 161 2.72 0.1 0.2
562 162 2.72 0.1 0.2
563 163 2.72 0.1 0.2
564 164 2.72 0.1 0.2
565 165 2.72 0.1 0.2
566 166 2.72 0.1 0.2
567 167 2.72 0.1 0.2
568 168 2.72 0.1 0.2
569 169 2.72 0.1 0.2
570 170 2.72 0.1 0.2
571 171 2.72 0.1 0.2
572 172 2.72 0.1 0.2
573 173 2.72 0.1 0.2
574 174 2.72 0.1 0.2
575 175 2.72 0.1 0.2
576 176 2.72 0.1 0.2
577 177 2.72 0.1 0.2
578 178 2.72 0.1 0.2
579 179 2.72 0.1 0.2
580 180 2.72 0.1 0.2
581 181 2.72 0.1 0.2
582 182 2.72 0.1 0.2
583 183 2.72 0.1 0.2
584 184 2.72 0.1 0.2
585 185 2.72 0.1 0.2
586 186 2.72 0.1 0.2
587 187 2.72 0.1 0.2
588 188 2.72 0.1 0.2
589 189 2.72 0.1 0.2
590 190 2.72 0.1 0.2
591 191 2.72 0.1 0.2
592 192 2.72 0.1 0.2
593 193 2.72 0.1 0.2
594 194 2.72 0.1 0.2
595 195 2.72 0.1 0.2
596 196 2.72 0.1 0.2
597 197 2.72 0.1 0.2
598 198 2.72 0.1 0.2
599 199 2.72 0.1 0.2
600 200 2.65 0.1 2
601 50 2.65 0.1 2
602 50 2.65 0.1 2
603 50 2.65 0.1 2
604 50 2.65 0.1 2
605 50 2.65 0.1 2
606 50 2.65 0.1 2
607 50 2.65 0.1 2
608 50 2.65 0.1 2
609 50 2.65 0.1 2
610 50 2.65 0.1 2
611 50 2.65 0.1 2
612 50 2.65 0.1 2
613 50 2.65 0.1 2
614 50 2.65 0.1 2
615 50 2.65 0.1 2
616 50 2.65 0.1 2
617 50 2.65 0.1 2
618 50 2.65 0.1 2
619 50 2.65 0.1 2
620 50 2.65 0.1 2
621 50 2.65 0.1 2
622 50 2.65 0.1 2
623 50 2.65 0.1 2
624 50 2.65 0.1 2
625 50 2.65 0.1 2
626 50 2.65 0.1 2
627 50 2.65 0.1 2
628 50 2.65 0.1 2
629 50 2.65 0.1 2
630 50 2.65 0.1 2
631 50 2.65 0.1 2
632 50 2.65 0.1 2
633 50 2.65 0.1 2
634 50 2.65 0.1 2
635 50 2.65 0.1 2
636 50 2.65 0.1 2
637 50 2.65 0.1 2
638 50 2.65 0.1 2
639 50 2.65 0.1 2
640 50 2.65 0.1 2
641 50 2.65 0.1 2
642 50 2.65 0.1 2
643 50 2.65 0.1 2
644 50 2.65 0.1 2
645 50 2.65 0.1 2
646 50 2.65 0.1 2
647 50 2.65 0.1 2
648 50 2.65 0.1 2
649 50 2.65 0.1 2
650 50 2.65 0.05 2
651 50 2.65 0.05 2
652 50 2.65 0.05 2
653 50 2.65 0.05 2
654 50 2.65 0.05 2
655 50 2.65 0.05 2
656 50 2.65 0.05 2
657 50 2.65 0.05 2
658 50 2.65 0.05 2
659 50 2.65 0.05 2
660 50 2.65 0.05 2
661 50 2.65 0.05 2
662 50 2.65 0.05 2
663 50 2.65 0.05 2
664 50 2.65 0.05 2
665 50 2.65 0.05 2
666 50 2.65 0.05 2
667 50 2.65 0.05 2
668 50 2.65 0.05 2
669 50 2.65 0.05 2
670 50 2.65 0.05 2
671 50 2.65 0.05 2
672 50 2.65 0.05 2
673 50 2.65 0.05 2
674 50 2.65 0.05 2
675 50 2.65 0.05 2
676 50 2.65 0.05 2
677 50 2.65 0.05 2
678 50 2.65 0.05 2
679 50 2.65 0.05 2
680 50 2.65 0.05 2
681 50 2.65 0.05 2
682 50 2.65 0.05 2
683 50 2.65 0.05 2
684 50 2.65 0.05 2
685 50 2.65 0.05 2
686 50 2.65 0.05 2
687 50 2.65 0.05 2
688 50 2.65 0.05 2
689 50 2.65 0.05 2
690 50 2.65 0.05 2
691 50 2.65 0.05 2
692 50 2.65 0.05 2
693 50 2.65 0.05 2
694 50 2.65 0.05 2
695 50 2.65 0.05 2
696 50 2.65 0.05 2
697 50 2.65 0.05 2
698 50 2.65 0.05 2
699 50 2.65 0.05 2
700 25 2.6 0.05 20
701 25 2.6 0.05 20
702 25 2.6 0.05 20
703 25 2.6 0.05 20
704 25 2.6 0.05 20
705 25 2.6 0.05 20
706 25 2.6 0.05 20
707 25 2.6 0.05 20
708 25 2.6 0.05 20
709 25 2.6 0.05 20
710 25 2.6 0.05 20
711 25 2.6 0.05 20
712 25 2.6 0.05 20
713 25 2.6 0.05 20
714 25 2.6 0.05 20
715 25 2.6 0.05 20
716 25 2.6 0.05 20
717 25 2.6 0.05 20
718 25 2.6 0.05 20
719 25 2.6 0.05 20
720 25 2.6 0.05 20
721 25 2.6 0.05 20
722 25 2.6 0.05 20
723 25 2.6 0.05 20
724 25 2.6 0.05 20
725 25 2.6 0.05 20
726 25 2.6 0.05 20
727 25 2.6 0.05 20
728 25 2.6 0.05 20
729 25 2.6 0.05 20
730 25 2.6 0.05 20
731 25 2.6 0.05 20
732 25 2.6 0.05 20
733 25 2.6 0.05 20
734 25 2.6 0.05 20
735 25 2.6 0.05 20
736 25 2.6 0.05 20
737 25 2.6 0.05 20
738 25 2.6 0.05 20
739 25 2.6 0.05 20
740 25 2.6 0.05 20
741 25 2.6 0.05 20
742 25 2.6 0.05 20
743 25 2.6 0.05 20
744 25 2.6 0.05 20
745 25 2.6 0.05 20
746 25 2.6 0.05 20
747 25 2.6 0.05 20
748 25 2.6 0.05 20
749 25 2.6 0.05 20
750 25 2.6 0.012 20
751 25 2.6 0.012 20
752 25 2.6 0.012 20
753 25 2.6 0.012 20
754 25 2.6 0.012 20
755 25 2.6 0.012 20
756 25 2.6 0.012 20
757 25 2.6 0.012 20
758 25 2.6 0.012 20
759 25 2.6 0.012 20
760 25 2.6 0.012 20
761 25 2.6 0.012 20
762 25 2.6 0.012 20
763 25 2.6 0.012 20
764 25 2.6 0.012 20
765 25 2.6 0.012 20
766 25 2.6 0.012 20
767 25 2.6 0.012 20
768 25 2.6 0.012 20
769 25 2.6 0.012 20
770 25 2.6 0.012 20
771 25 2.6 0.012 20
772 25 2.6 0.012 20
773 25 2.6 0.012 20
774 25 2.6 0.012 20
775 25 2.6 0.012 20
776 25 2.6 0.012 20
777 25 2.6 0.012 20
778 25 2.6 0.012 20
779 25 2.6 0.012 20
780 25 2.6 0.012 20
781 25 2.6 0.012 20
782 25 2.6 0.012 20
783 25 2.6 0.012 20
784 25 2.6 0.012 20
785 25 2.6 0.012 20
786 25 2.6 0.012 20
787 25 2.6 0.012 20
788 25 2.6 0.012 20
789 25 2.6 0.012 20
790 25 2.6 0.012 20
791 25 2.6 0.012 20
792 25 2.6 0.012 20
793 25 2.6 0.012 20
794 25 2.6 0.012 20
795 25 2.6 0.012 20
796 25 2.6 0.012 20
797 25 2.6 0.012 20
798 25 2.6 0.012 20
799 25 2.6 0.012 20
800 25 2.85 0.012 200
801 25 2.85 0.012 200
802 25 2.85 0.012 200
803 25 2.85 0.012 200
804 25 2.85 0.012 200
805 25 2.85 0.012 200
806 25 2.85 0.012 200
807 25 2.85 0.012 200
808 25 2.85 0.012 200
809 25 2.85 0.012 200
810 25 2.85 0.012 200
811 25 2.85 0.012 200
812 25 2.85 0.012 200
813 25 2.85 0.012 200
814 25 2.85 0.012 200
815 25 2.85 0.012 200
816 25 2.85 0.012 200
817 25 2.85 0.012 200
818 25 2.85 0.012 200
819 25 2.85 0.012 200
820 25 2.85 0.012 200
821 25 2.85 0.012 200
822 25 2.85 0.012 200
823 25 2.85 0.012 200
824 25 2.85 0.012 200
825 25 2.85 0.012 200
826 25 2.85 0.012 200
827 25 2.85 0.012 200
828 25 2.85 0.012 200
829 25 2.85 0.012 200
830 25 2.85 0.012 200
831 25 2.85 0.012 200
832 25 2.85 0.012 200
833 25 2.85 0.012 200
834 25 2.85 0.012 200
835 25 2.85 0.012 200
836 25 2.85 0.012 200
837 25 2.85 0.012 200
838 25 2.85 0.012 200
839 25 2.85 0.012 200
840 25 2.85 0.012 200
841 25 2.85 0.012 200
842 25 2.85 0.012 200
843 25 2.85 0.012 200
844 25 2.85 0.012 200
845 25 2.85 0.012 200
846 25 2.85 0.012 200
847 25 2.85 0.012 200
848 25 2.85 0.012 200
849 25 2.85 0.012 200
850 25 2.85 0.2 200
851 25 2.85 0.2 200
852 25 2.85 0.2 200
853 25 2.85 0.2 200
854 25 2.85 0.2 200
855 25 2.85 0.2 200
856 25 2.85 0.2 200
857 25 2.85 0.2 200
858 25 2.85 0.2 200
859 25 2.85 0.2 200
860 25 2.85 0.2 200
861 25 2.85 0.2 200
862 25 2.85 0.2 200
863 25 2.85 0.2 200
864 25 2.85 0.2 200
865 25 2.85 0.2 200
866 25 2.85 0.2 200
867 25 2.85 0.2 200
868 25 2.85 0.2 200
869 25 2.85 0.2 200
870 25 2.85 0.2 200
871 25 2.85 0.2 200
872 25 2.85 0.2 200
873 25 2.85 0.2 200
874 25 2.85 0.2 200
875 25 2.85 0.2 200
876 25 2.85 0.2 200
877 25 2.85 0.2 200
878 25 2.85 0.2 200
879 25 2.85 0.2 200
880 25 2.85 0.2 200
881 25 2.85 0.2 200
882 25 2.85 0.2 200
883 25 2.85 0.2 200
884 25 2.85 0.2 200
885 25 2.85 0.2 200
886 25 2.85 0.2 200
887 25 2.85 0.2 200
888 25 2.85 0.2 200
889 25 2.85 0.2 200
890 25 2.85 0.2 200
891 25 2.85 0.2 200
892 25 2.85 0.2 200
893 25 2.85 0.2 200
894 25 2.85 0.2 200
895 25 2.85 0.2 200
896 25 2.85 0.2 200
897 25 2.85 0.2 200
898 25 2.85 0.2 200
899 25 2.85 0.2 200
